[
  {
    "name": "The Velvet Underground",
    "slug": "the-velvet-underground",
    "address": "508 Queen St W, Toronto, ON",
    "lat": 43.647867,
    "lon": -79.4014961,
    "categories": [
      "hip-hop",
      "club"
    ],
    "isFeatured": false,
    "coverPhotoUrl": "https://6ztzdxzkhufqlyn3.public.blob.vercel-storage.com/images/the-velvet-underground.jpg",
    "createdAt": "2025-08-05T15:11:18.846910",
    "updatedAt": "2025-08-05T15:11:18.846921"
  },
  {
    "name": "DPRTMNT",
    "slug": "dprtmnt",
    "address": "473 Adelaide St W, Toronto, ON M5V 1T1",
    "lat": 43.645627,
    "lon": -79.39995569999999,
    "categories": [
      "EDM",
      "Bottle Service"
    ],
    "isFeatured": false,
    "coverPhotoUrl": "https://6ztzdxzkhufqlyn3.public.blob.vercel-storage.com/images/toybox.jpg",
    "createdAt": "2025-08-07T18:49:38.698021",
    "updatedAt": "2025-08-07T18:49:38.698022"
  },
  {
    "name": "Rebel",
    "slug": "rebel",
    "address": "11 Polson St, Toronto, ON M5A 1A4",
    "lat": 43.6407774,
    "lon": -79.3545752,
    "categories": [
      "EDM",
      "Hip-Hop",
      "Mega Club"
    ],
    "isFeatured": true,
    "coverPhotoUrl": "https://6ztzdxzkhufqlyn3.public.blob.vercel-storage.com/images/rebel.net/medias/REBEL-Toronto",
    "createdAt": "2025-08-07T18:49:38.697994",
    "updatedAt": "2025-08-07T18:49:38.698008"
  },
  {
    "id": "9116f1c0-8ec4-481b-bf5b-2c6cc9a00f97",
    "name": "Coda",
    "slug": "coda",
    "address": "794 Bathurst St, Toronto, ON",
    "lat": 43.665399,
    "lon": -79.4114716,
    "categories": [
      "latin",
      "dance"
    ],
    "isFeatured": false,
    "coverPhotoUrl": "https://6ztzdxzkhufqlyn3.public.blob.vercel-storage.com/images/coda.webp",
    "createdAt": "2025-08-05T15:11:18.847860",
    "updatedAt": "2025-08-05T15:11:18.847862"
  },
  {
    "name": "Lost and Found",
    "slug": "lost-and-found",
    "address": "577 King St W, Toronto, ON M5V 1M1",
    "lat": 43.6443686,
    "lon": -79.3996657,
    "categories": [
      "Hip-Hop",
      "Exclusive"
    ],
    "isFeatured": false,
    "coverPhotoUrl": "https://6ztzdxzkhufqlyn3.public.blob.vercel-storage.com/images/lost-and-found.jpg",
    "createdAt": "2025-08-07T18:49:38.698017",
    "updatedAt": "2025-08-07T18:49:38.698019"
  },
  {
    "name": "The Drake Underground",
    "slug": "the-drake-underground",
    "address": "1150 Queen St W, Toronto, ON",
    "lat": 43.6432497,
    "lon": -79.4246963,
    "categories": [
      "rnb",
      "chill"
    ],
    "isFeatured": true,
    "coverPhotoUrl": "https://6ztzdxzkhufqlyn3.public.blob.vercel-storage.com/images/the-drake-underground.jpg",
    "createdAt": "2025-08-05T15:11:18.848472",
    "updatedAt": "2025-08-05T15:11:18.848474"
  },
  {
    "id": "347bd5d3-18f7-4d0a-8eb7-0656c2b2f512",
    "name": "Apartment 200",
    "slug": "apartment-200",
    "address": "1034 Queen St W, Toronto, ON",
    "lat": 43.6440642,
    "lon": -79.42021749999999,
    "categories": [
      "pop",
      "party"
    ],
    "isFeatured": false,
    "coverPhotoUrl": "https://6ztzdxzkhufqlyn3.public.blob.vercel-storage.com/images/apartment-200.jpg",
    "createdAt": "2025-08-05T15:11:18.848708",
    "updatedAt": "2025-08-05T15:11:18.848711"
  },
  {
    "name": "Lavelle",
    "slug": "lavelle",
    "address": "627 King St W, Toronto, ON M5V 1M5",
    "lat": 43.6437993,
    "lon": -79.4013308,
    "categories": [
      "Rooftop",
      "Lounge",
      "Trendy"
    ],
    "isFeatured": true,
    "coverPhotoUrl": "https://6ztzdxzkhufqlyn3.public.blob.vercel-storage.com/images/lavelle.jpg",
    "createdAt": "2025-08-07T18:49:38.698011",
    "updatedAt": "2025-08-07T18:49:38.698012"
  },
  {
    "name": "Track & Field",
    "slug": "track-and-field",
    "address": "582 College St, Toronto, ON M6H 1A2",
    "lat": 43.65560464276153,
    "lon": -79.41335208935038,
    "categories": [
      "Games",
      "Casual",
      "Social"
    ],
    "isFeatured": false,
    "coverPhotoUrl": "https://6ztzdxzkhufqlyn3.public.blob.vercel-storage.com/images/track-and-field.jpg",
    "createdAt": "2025-08-07T18:49:38.698024",
    "updatedAt": "2025-08-07T18:49:38.698025"
  },
  {
    "name": "Petty Cash",
    "slug": "petty-cash",
    "address": "487 Adelaide St W, Toronto, ON M5V 1T4",
    "lat": 43.6454675,
    "lon": -79.4008097,
    "categories": [
      "Casual",
      "Dance",
      "Hip-Hop"
    ],
    "isFeatured": false,
    "coverPhotoUrl": "https://6ztzdxzkhufqlyn3.public.blob.vercel-storage.com/images/petty-cash.jpg",
    "createdAt": "2025-08-07T18:49:38.698027",
    "updatedAt": "2025-08-07T18:49:38.698028"
  }
]
